{
  "authenticationResultCode": "ValidCredentials",
  "brandLogoUri": "http://dev.virtualearth.net/Branding/logo_powered_by.png",
  "copyright": "Copyright Â© 2019 Microsoft and its suppliers. All rights reserved. This API cannot be accessed and the content and any results may not be used, reproduced or transmitted in any manner without express written permission from Microsoft Corporation.",
  "resourceSets": [
    {
      "estimatedTotal": 10,
      "resources": [
        {
          "__type": "SearchResult:http://schemas.microsoft.com/search/local/ws/rest/v1",
          "name": "Marco's Pizza",
          "point": {
            "type": "Point",
            "coordinates": [
              41.62272262573242,
              -88.22191619873047
            ]
          },
          "Address": {
            "addressLine": "14220 S Rte 30",
            "adminDistrict": "IL",
            "countryRegion": "US",
            "formattedAddress": "14220 S Rte 30, Plainfield, IL, 60544",
            "locality": "Plainfield",
            "postalCode": "60544"
          },
          "PhoneNumber": "(815) 254-5700",
          "Website": "http://www.marcos.com/locations/il/plainfield/s-rte-30?s=true",
          "entityType": "Restaurant",
          "geocodePoints": [
            {
              "type": "Point",
              "coordinates": [
                41.622711181640625,
                -88.22250366210938
              ],
              "calculationMethod": "Rooftop",
              "usageTypes": [
                "Display"
              ]
            }
          ]
        },
        {
          "__type": "SearchResult:http://schemas.microsoft.com/search/local/ws/rest/v1",
          "name": "Fat Ricky's",
          "point": {
            "type": "Point",
            "coordinates": [
              41.632049560546875,
              -88.22227478027344
            ]
          },
          "Address": {
            "addressLine": "13717 Us-30",
            "adminDistrict": "IL",
            "countryRegion": "US",
            "formattedAddress": "13717 Us-30, Plainfield, IL, 60544",
            "locality": "Plainfield",
            "postalCode": "60544"
          },
          "PhoneNumber": "(815) 230-2300",
          "Website": "http://fatrickys.com/",
          "entityType": "Restaurant",
          "geocodePoints": [
            {
              "type": "Point",
              "coordinates": [
                41.632118225097656,
                -88.21949005126953
              ],
              "calculationMethod": "Rooftop",
              "usageTypes": [
                "Display"
              ]
            }
          ]
        },
        {
          "__type": "SearchResult:http://schemas.microsoft.com/search/local/ws/rest/v1",
          "name": "Fox's Restaurant & Pub",
          "point": {
            "type": "Point",
            "coordinates": [
              41.6226806640625,
              -88.22191619873047
            ]
          },
          "Address": {
            "addressLine": "14206 S Us Route 30",
            "adminDistrict": "IL",
            "countryRegion": "US",
            "formattedAddress": "14206 S Us Route 30, Plainfield, IL, 60544",
            "locality": "Plainfield",
            "postalCode": "60544"
          },
          "PhoneNumber": "(815) 733-5593",
          "Website": "http://www.foxsrestaurant.com/plainfield-il-location/",
          "entityType": "Restaurant",
          "geocodePoints": [
            {
              "type": "Point",
              "coordinates": [
                41.622676849365234,
                -88.22197723388672
              ],
              "calculationMethod": "Rooftop",
              "usageTypes": [
                "Display"
              ]
            }
          ]
        },
        {
          "__type": "SearchResult:http://schemas.microsoft.com/search/local/ws/rest/v1",
          "name": "Aurelio's Pizza Naperville Springbrook Square",
          "point": {
            "type": "Point",
            "coordinates": [
              41.73039627075195,
              -88.20464324951172
            ]
          },
          "Address": {
            "addressLine": "1975 Springbrook Square Dr",
            "adminDistrict": "IL",
            "countryRegion": "US",
            "formattedAddress": "1975 Springbrook Square Dr, Naperville, IL, 60564",
            "locality": "Naperville",
            "postalCode": "60564"
          },
          "PhoneNumber": "(630) 922-3600",
          "Website": "https://www.aureliospizza.com/location/naperville-springbrook/",
          "entityType": "Restaurant",
          "geocodePoints": [
            {
              "type": "Point",
              "coordinates": [
                41.73057174682617,
                -88.20465850830078
              ],
              "calculationMethod": "Rooftop",
              "usageTypes": [
                "Display"
              ]
            }
          ]
        },
        {
          "__type": "SearchResult:http://schemas.microsoft.com/search/local/ws/rest/v1",
          "name": "Aurelio's Pizza",
          "point": {
            "type": "Point",
            "coordinates": [
              41.63486099243164,
              -88.2223892211914
            ]
          },
          "Address": {
            "addressLine": "13544 S Route 30",
            "adminDistrict": "IL",
            "countryRegion": "US",
            "formattedAddress": "13544 S Route 30, Plainfield, IL, 60544",
            "locality": "Plainfield",
            "postalCode": "60544"
          },
          "PhoneNumber": "(815) 254-3500",
          "Website": "https://www.aureliospizza.com/location/plainfield/",
          "entityType": "Restaurant",
          "geocodePoints": [
            {
              "type": "Point",
              "coordinates": [
                41.63571548461914,
                -88.22309875488281
              ],
              "calculationMethod": "Rooftop",
              "usageTypes": [
                "Display"
              ]
            }
          ]
        },
        {
          "__type": "SearchResult:http://schemas.microsoft.com/search/local/ws/rest/v1",
          "name": "Doughballs Pizza",
          "point": {
            "type": "Point",
            "coordinates": [
              41.759620666503906,
              -88.31524658203125
            ]
          },
          "Address": {
            "addressLine": "40 W New York St",
            "adminDistrict": "IL",
            "countryRegion": "US",
            "formattedAddress": "40 W New York St, Aurora, IL, 60506",
            "locality": "Aurora",
            "postalCode": "60506"
          },
          "PhoneNumber": "(630) 844-5205",
          "Website": null,
          "entityType": "Restaurant",
          "geocodePoints": [
            {
              "type": "Point",
              "coordinates": [
                41.759578704833984,
                -88.31527709960938
              ],
              "calculationMethod": "Rooftop",
              "usageTypes": [
                "Display"
              ]
            }
          ]
        },
        {
          "__type": "SearchResult:http://schemas.microsoft.com/search/local/ws/rest/v1",
          "name": "Aurelio's Pizza",
          "point": {
            "type": "Point",
            "coordinates": [
              41.60781478881836,
              -88.22111511230469
            ]
          },
          "Address": {
            "addressLine": "14421 S Wallin Dr",
            "adminDistrict": "IL",
            "countryRegion": "US",
            "formattedAddress": "14421 S Wallin Dr, Plainfield, IL, 60544",
            "locality": "Plainfield",
            "postalCode": "60544"
          },
          "PhoneNumber": "(815) 254-3500",
          "Website": "https://www.aureliospizza.com/location/plainfield/",
          "entityType": "Restaurant",
          "geocodePoints": [
            {
              "type": "Point",
              "coordinates": [
                41.607818603515625,
                -88.22105407714844
              ],
              "calculationMethod": "Rooftop",
              "usageTypes": [
                "Display"
              ]
            }
          ]
        },
        {
          "__type": "SearchResult:http://schemas.microsoft.com/search/local/ws/rest/v1",
          "name": "Tortorice's Pizzeria",
          "point": {
            "type": "Point",
            "coordinates": [
              41.77151870727539,
              -88.03175354003906
            ]
          },
          "Address": {
            "addressLine": "6321 Woodward Ave",
            "adminDistrict": "IL",
            "countryRegion": "US",
            "formattedAddress": "6321 Woodward Ave, Downers Grove, IL, 60516",
            "locality": "Downers Grove",
            "postalCode": "60516"
          },
          "PhoneNumber": "(630) 241-1717",
          "Website": "http://www.tortoricespizza.com/downers-grove-westmont",
          "entityType": "Restaurant",
          "geocodePoints": [
            {
              "type": "Point",
              "coordinates": [
                41.77152633666992,
                -88.03134155273438
              ],
              "calculationMethod": "Rooftop",
              "usageTypes": [
                "Display"
              ]
            }
          ]
        },
        {
          "__type": "SearchResult:http://schemas.microsoft.com/search/local/ws/rest/v1",
          "name": "Angelo's Pizza",
          "point": {
            "type": "Point",
            "coordinates": [
              41.79384994506836,
              -88.0092544555664
            ]
          },
          "Address": {
            "addressLine": "1001 Curtiss St",
            "adminDistrict": "IL",
            "countryRegion": "US",
            "formattedAddress": "1001 Curtiss St, Downers Grove, IL, 60515",
            "locality": "Downers Grove",
            "postalCode": "60515"
          },
          "PhoneNumber": "(630) 969-4394",
          "Website": "https://angelospizzadg.com/",
          "entityType": "Restaurant",
          "geocodePoints": [
            {
              "type": "Point",
              "coordinates": [
                41.79359817504883,
                -88.00919342041016
              ],
              "calculationMethod": "Rooftop",
              "usageTypes": [
                "Display"
              ]
            }
          ]
        },
        {
          "__type": "SearchResult:http://schemas.microsoft.com/search/local/ws/rest/v1",
          "name": "Little Caesars Pizza",
          "point": {
            "type": "Point",
            "coordinates": [
              41.63969039916992,
              -88.20298767089844
            ]
          },
          "Address": {
            "addressLine": "13327 S Route 59 Ste 600",
            "adminDistrict": "IL",
            "countryRegion": "US",
            "formattedAddress": "13327 S Route 59 Ste 600, Plainfield, IL, 60585",
            "locality": "Plainfield",
            "postalCode": "60585"
          },
          "PhoneNumber": "(815) 577-2936",
          "Website": "http://littlecaesars.com/",
          "entityType": "Restaurant",
          "geocodePoints": [
            {
              "type": "Point",
              "coordinates": [
                41.63970184326172,
                -88.20243835449219
              ],
              "calculationMethod": "Rooftop",
              "usageTypes": [
                "Display"
              ]
            }
          ]
        }
      ]
    }
  ],
  "statusCode": 200,
  "statusDescription": "OK",
  "traceId": "2ae596055b49475998424b5ca0323e5a|CH12F221B8|7.7.0.0"
}